{"depotpark": [{"lat": 49.2477324, "lng": 28.5117743, "name": "Вінниця", "state": "UA", "departure_ratio": 1.0, "arrival_ratio": 1.0}, {"lat": 49.0472278, "lng": 28.1018644, "name": "Жмеринка", "state": "UA", "departure_ratio": 1.0, "arrival_ratio": 1.0}, {"lat": 50.7586849, "lng": 25.3503527, "name": "Луцьк", "state": "UA", "departure_ratio": 0.95, "arrival_ratio": 0.85}, {"lat": 51.2126936, "lng": 24.7234919, "name": "Ковель", "state": "UA", "departure_ratio": 0.95, "arrival_ratio": 0.85}, {"lat": 48.4837507, "lng": 35.1035458, "name": "Дніпро", "state": "UA", "departure_ratio": 0.9, "arrival_ratio": 1.0}, {"lat": 48.1172005, "lng": 33.5421389, "name": "Кривий Ріг", "state": "UA", "departure_ratio": 0.9, "arrival_ratio": 1.0}, {"lat": 47.8727901, "lng": 33.3764639, "name": "Кривий Ріг", "state": "UA", "departure_ratio": 0.9, "arrival_ratio": 1.0}, {"lat": 47.5815945, "lng": 34.342938, "name": "Нікополь", "state": "UA", "departure_ratio": 1.0, "arrival_ratio": 1.1}, {"lat": 50.3026525, "lng": 28.6683552, "name": "Житомир", "state": "UA", "departure_ratio": 1.0, "arrival_ratio": 1.0}, {"lat": 50.9705976, "lng": 28.6440749, "name": "Коростень", "state": "UA", "departure_ratio": 1.0, "arrival_ratio": 1.0}, {"lat": 49.9083543, "lng": 28.6101825, "name": "Бердичів", "state": "UA", "departure_ratio": 1.0, "arrival_ratio": 1.0}, {"lat": 48.5889625, "lng": 22.2930823, "name": "Ужгород", "state": "UA", "departure_ratio": 0.85, "arrival_ratio": 0.85}, {"lat": 48.4348197, "lng": 22.7472272, "name": "Мукачево", "state": "UA", "departure_ratio": 0.85, "arrival_ratio": 0.85}, {"lat": 47.8791748, "lng": 35.1765208, "name": "Запоріжжя", "state": "UA", "departure_ratio": 1.0, "arrival_ratio": 1.2}, {"lat": 48.8962256, "lng": 24.7155191, "name": "Івано-Франківськ", "state": "UA", "departure_ratio": 1.0, "arrival_ratio": 0.9}, {"lat": 50.4496788, "lng": 30.6828889, "name": "Київ", "state": "UA", "departure_ratio": 0.9, "arrival_ratio": 1.0}, {"lat": 50.4467675, "lng": 30.4185933, "name": "Київ", "state": "UA", "departure_ratio": 0.9, "arrival_ratio": 1.0}, {"lat": 50.557146, "lng": 30.8521647, "name": "Бровари", "state": "UA", "departure_ratio": 1.0, "arrival_ratio": 1.0}, {"lat": 49.7839529, "lng": 30.1879866, "name": "Біла Церква", "state": "UA", "departure_ratio": 1.0, "arrival_ratio": 1.0}, {"lat": 48.5201839, "lng": 32.278083, "name": "Кропивницький", "state": "UA", "departure_ratio": 1.0, "arrival_ratio": 1.05}, {"lat": 48.7127179, "lng": 33.0664874, "name": "Олександрія", "state": "UA", "departure_ratio": 1.0, "arrival_ratio": 1.0}, {"lat": 49.8175166, "lng": 24.0602122, "name": "Львів", "state": "UA", "departure_ratio": 0.95, "arrival_ratio": 0.95}, {"lat": 46.9466819, "lng": 31.9552912, "name": "Миколаїв", "state": "UA", "departure_ratio": 1.2, "arrival_ratio": 1.2}, {"lat": 47.6082744, "lng": 31.3037151, "name": "Вознесенськ", "state": "UA", "departure_ratio": 1.2, "arrival_ratio": 1.2}, {"lat": 46.4824242, "lng": 30.7610396, "name": "Одеса", "state": "UA", "departure_ratio": 0.7, "arrival_ratio": 1.2}, {"lat": 45.3577814, "lng": 28.8056803, "name": "Ізмаїл", "state": "UA", "departure_ratio": 0.7, "arrival_ratio": 1.2}, {"lat": 49.5791282, "lng": 34.5949656, "name": "Полтава", "state": "UA", "departure_ratio": 1.0, "arrival_ratio": 1.0}, {"lat": 49.1139237, "lng": 33.4150095, "name": "Кременчук", "state": "UA", "departure_ratio": 1.0, "arrival_ratio": 1.0}, {"lat": 50.0328774, "lng": 32.9510742, "name": "Лубни", "state": "UA", "departure_ratio": 1.0, "arrival_ratio": 1.0}, {"lat": 50.6454164, "lng": 26.2704279, "name": "Рівне", "state": "UA", "departure_ratio": 0.95, "arrival_ratio": 0.85}, {"lat": 50.4087662, "lng": 25.7769674, "name": "Дубно", "state": "UA", "departure_ratio": 0.95, "arrival_ratio": 0.85}, {"lat": 50.9240707, "lng": 34.8113796, "name": "Суми", "state": "UA", "departure_ratio": 1.2, "arrival_ratio": 1.2}, {"lat": 50.7541234, "lng": 33.4807991, "name": "Ромни", "state": "UA", "departure_ratio": 1.0, "arrival_ratio": 1.2}, {"lat": 49.5765011, "lng": 25.5990985, "name": "Тернопіль", "state": "UA", "departure_ratio": 1.05, "arrival_ratio": 1.0}, {"lat": 48.9968659, "lng": 25.8608855, "name": "Чортков", "state": "UA", "departure_ratio": 0.9, "arrival_ratio": 0.9}, {"lat": 49.9519883, "lng": 36.169978, "name": "Харків", "state": "UA", "departure_ratio": 0.85, "arrival_ratio": 1.2}, {"lat": 49.1760928, "lng": 37.2911294, "name": "Ізюм", "state": "UA", "departure_ratio": 1.2, "arrival_ratio": 1.2}, {"lat": 49.4104464, "lng": 27.0202466, "name": "Хмельницький", "state": "UA", "departure_ratio": 1.0, "arrival_ratio": 1.0}, {"lat": 50.1807216, "lng": 27.0754421, "name": "Шепетівка", "state": "UA", "departure_ratio": 0.9, "arrival_ratio": 0.95}, {"lat": 48.6905694, "lng": 26.5966223, "name": "Кам'янець-Подільський", "state": "UA", "departure_ratio": 0.85, "arrival_ratio": 1.0}, {"lat": 46.6591755, "lng": 32.5746633, "name": "Херсон", "state": "UA", "departure_ratio": 1.2, "arrival_ratio": 1.2}, {"lat": 49.3781683, "lng": 32.0557625, "name": "Черкаси", "state": "UA", "departure_ratio": 1.1, "arrival_ratio": 1.0}, {"lat": 48.7450586, "lng": 30.2100905, "name": "Умань", "state": "UA", "departure_ratio": 1.0, "arrival_ratio": 1.0}, {"lat": 49.6617369, "lng": 32.0613698, "name": "Золотоноша", "state": "UA", "departure_ratio": 1.0, "arrival_ratio": 1.0}, {"lat": 51.461816, "lng": 31.2454925, "name": "Чернігів", "state": "UA", "departure_ratio": 1.0, "arrival_ratio": 1.1}, {"lat": 50.5578571, "lng": 32.38511, "name": "Прилуки", "state": "UA", "departure_ratio": 1.0, "arrival_ratio": 1.0}, {"lat": 51.0171628, "lng": 31.8638573, "name": "Ніжин", "state": "UA", "departure_ratio": 1.0, "arrival_ratio": 1.0}, {"lat": 51.7683452, "lng": 32.2515697, "name": "Корюківка", "state": "UA", "departure_ratio": 1.2, "arrival_ratio": 1.2}, {"lat": 48.3306025, "lng": 25.9390436, "name": "Чернівці", "state": "UA", "departure_ratio": 0.9, "arrival_ratio": 1.2}, {"lat": 51.3387526, "lng": 26.6026634, "name": "Сарни", "state": "UA", "departure_ratio": 0.85, "arrival_ratio": 0.85}, {"lat": 48.7954704, "lng": 29.3841935, "name": "Гайсин", "state": "UA", "departure_ratio": 1.0, "arrival_ratio": 1.0}, {"lat": 50.6266933, "lng": 27.6425265, "name": "Звягель", "state": "UA", "departure_ratio": 1.0, "arrival_ratio": 1.0}, {"lat": 48.5282809, "lng": 25.0907483, "name": "Коломия", "state": "UA", "departure_ratio": 0.95, "arrival_ratio": 0.85}, {"lat": 49.4212501, "lng": 24.5995285, "name": "Рогатин", "state": "UA", "departure_ratio": 0.95, "arrival_ratio": 0.85}, {"lat": 50.2467703, "lng": 31.8149387, "name": "Яготин", "state": "UA", "departure_ratio": 0.9, "arrival_ratio": 1.0}, {"lat": 49.270618, "lng": 23.8716906, "name": "Стрий", "state": "UA", "departure_ratio": 0.9, "arrival_ratio": 0.85}, {"lat": 50.2910938, "lng": 24.6341675, "name": "Радехів", "state": "UA", "departure_ratio": 0.9, "arrival_ratio": 0.85}, {"lat": 48.0177576, "lng": 30.8541633, "name": "Первомайськ", "state": "UA", "departure_ratio": 1.2, "arrival_ratio": 1.2}, {"lat": 51.6777499, "lng": 33.9098281, "name": "Глухів", "state": "UA", "departure_ratio": 1.1, "arrival_ratio": 1.2}, {"lat": 49.3775898, "lng": 35.4446926, "name": "Красноград", "state": "UA", "departure_ratio": 1.0, "arrival_ratio": 1.2}, {"lat": 48.8924704, "lng": 36.3150649, "name": "Лозова", "state": "UA", "departure_ratio": 1.2, "arrival_ratio": 1.2}, {"lat": 49.0796932, "lng": 30.9342995, "name": "Звенигородка", "state": "UA", "departure_ratio": 1.0, "arrival_ratio": 1.0}, {"lat": 51.1778934, "lng": 32.7951018, "name": "Бахмач", "state": "UA", "departure_ratio": 1.0, "arrival_ratio": 1.1}]}