{"depotpark": [
{"lat": 49.2477324, "lng": 28.5117743, "name": "Вінниця", "state": "UA", "departure_ratio": 1.0, "arrival_ratio": 1.0}, {"lat": 49.0472278, "lng": 28.1018644, "name": "Жмеринка", "state": "UA", "departure_ratio": 1.0, "arrival_ratio": 1.0}, {"lat": 50.7586849, "lng": 25.3503527, "name": "Луцьк", "state": "UA", "departure_ratio": 0.95, "arrival_ratio": 0.85}, {"lat": 51.2126936, "lng": 24.7234919, "name": "Ковель", "state": "UA", "departure_ratio": 0.95, "arrival_ratio": 0.85}, {"lat": 48.4837507, "lng": 35.1035458, "name": "Дніпро", "state": "UA", "departure_ratio": 0.9, "arrival_ratio": 1.0}, {"lat": 48.1172005, "lng": 33.5421389, "name": "Кривий Ріг", "state": "UA", "departure_ratio": 0.9, "arrival_ratio": 1.0}, {"lat": 47.8727901, "lng": 33.3764639, "name": "Кривий Ріг", "state": "UA", "departure_ratio": 0.9, "arrival_ratio": 1.0}, {"lat": 47.5815945, "lng": 34.342938, "name": "Нікополь", "state": "UA", "departure_ratio": 1.0, "arrival_ratio": 1.1}, {"lat": 50.3026525, "lng": 28.6683552, "name": "Житомир", "state": "UA", "departure_ratio": 1.0, "arrival_ratio": 1.0}, {"lat": 50.9705976, "lng": 28.6440749, "name": "Коростень", "state": "UA", "departure_ratio": 1.0, "arrival_ratio": 1.0}, {"lat": 49.9083543, "lng": 28.6101825, "name": "Бердичів", "state": "UA", "departure_ratio": 1.0, "arrival_ratio": 1.0}, {"lat": 48.5889625, "lng": 22.2930823, "name": "Ужгород", "state": "UA", "departure_ratio": 0.85, "arrival_ratio": 0.85}, {"lat": 48.4348197, "lng": 22.7472272, "name": "Мукачево", "state": "UA", "departure_ratio": 0.85, "arrival_ratio": 0.85}, {"lat": 47.8791748, "lng": 35.1765208, "name": "Запоріжжя", "state": "UA", "departure_ratio": 1.0, "arrival_ratio": 1.2}, {"lat": 48.8962256, "lng": 24.7155191, "name": "Івано-Франківськ", "state": "UA", "departure_ratio": 1.0, "arrival_ratio": 0.9}, {"lat": 50.4496788, "lng": 30.6828889, "name": "Київ", "state": "UA", "departure_ratio": 0.9, "arrival_ratio": 1.0}, {"lat": 50.4467675, "lng": 30.4185933, "name": "Київ", "state": "UA", "departure_ratio": 0.9, "arrival_ratio": 1.0}, {"lat": 50.557146, "lng": 30.8521647, "name": "Бровари", "state": "UA", "departure_ratio": 1.0, "arrival_ratio": 1.0}, {"lat": 49.7839529, "lng": 30.1879866, "name": "Біла Церква", "state": "UA", "departure_ratio": 1.0, "arrival_ratio": 1.0}, {"lat": 48.5201839, "lng": 32.278083, "name": "Кропивницький", "state": "UA", "departure_ratio": 1.0, "arrival_ratio": 1.05}, {"lat": 48.7127179, "lng": 33.0664874, "name": "Олександрія", "state": "UA", "departure_ratio": 1.0, "arrival_ratio": 1.0}, {"lat": 49.8175166, "lng": 24.0602122, "name": "Львів", "state": "UA", "departure_ratio": 0.95, "arrival_ratio": 0.95}, {"lat": 46.9466819, "lng": 31.9552912, "name": "Миколаїв", "state": "UA", "departure_ratio": 1.2, "arrival_ratio": 1.2}, {"lat": 47.6082744, "lng": 31.3037151, "name": "Вознесенськ", "state": "UA", "departure_ratio": 1.2, "arrival_ratio": 1.2}, {"lat": 46.4824242, "lng": 30.7610396, "name": "Одеса", "state": "UA", "departure_ratio": 0.7, "arrival_ratio": 1.2}, {"lat": 45.3577814, "lng": 28.8056803, "name": "Ізмаїл", "state": "UA", "departure_ratio": 0.7, "arrival_ratio": 1.2}, {"lat": 49.5791282, "lng": 34.5949656, "name": "Полтава", "state": "UA", "departure_ratio": 1.0, "arrival_ratio": 1.0}, {"lat": 49.1139237, "lng": 33.4150095, "name": "Кременчук", "state": "UA", "departure_ratio": 1.0, "arrival_ratio": 1.0}, {"lat": 50.0328774, "lng": 32.9510742, "name": "Лубни", "state": "UA", "departure_ratio": 1.0, "arrival_ratio": 1.0}, {"lat": 50.6454164, "lng": 26.2704279, "name": "Рівне", "state": "UA", "departure_ratio": 0.95, "arrival_ratio": 0.85}, {"lat": 50.4087662, "lng": 25.7769674, "name": "Дубно", "state": "UA", "departure_ratio": 0.95, "arrival_ratio": 0.85}, {"lat": 50.9240707, "lng": 34.8113796, "name": "Суми", "state": "UA", "departure_ratio": 1.2, "arrival_ratio": 1.2}, {"lat": 50.7541234, "lng": 33.4807991, "name": "Ромни", "state": "UA", "departure_ratio": 1.0, "arrival_ratio": 1.2}, {"lat": 49.5765011, "lng": 25.5990985, "name": "Тернопіль", "state": "UA", "departure_ratio": 1.05, "arrival_ratio": 1.0}, {"lat": 48.9968659, "lng": 25.8608855, "name": "Чортков", "state": "UA", "departure_ratio": 0.9, "arrival_ratio": 0.9}, {"lat": 49.9519883, "lng": 36.169978, "name": "Харків", "state": "UA", "departure_ratio": 0.85, "arrival_ratio": 1.2}, {"lat": 49.1760928, "lng": 37.2911294, "name": "Ізюм", "state": "UA", "departure_ratio": 1.2, "arrival_ratio": 1.2}, {"lat": 49.4104464, "lng": 27.0202466, "name": "Хмельницький", "state": "UA", "departure_ratio": 1.0, "arrival_ratio": 1.0}, {"lat": 50.1807216, "lng": 27.0754421, "name": "Шепетівка", "state": "UA", "departure_ratio": 0.9, "arrival_ratio": 0.95}, {"lat": 48.6905694, "lng": 26.5966223, "name": "Кам'янець-Подільський", "state": "UA", "departure_ratio": 0.85, "arrival_ratio": 1.0}, {"lat": 46.6591755, "lng": 32.5746633, "name": "Херсон", "state": "UA", "departure_ratio": 1.2, "arrival_ratio": 1.2}, {"lat": 49.3781683, "lng": 32.0557625, "name": "Черкаси", "state": "UA", "departure_ratio": 1.1, "arrival_ratio": 1.0}, {"lat": 48.7450586, "lng": 30.2100905, "name": "Умань", "state": "UA", "departure_ratio": 1.0, "arrival_ratio": 1.0}, {"lat": 49.6617369, "lng": 32.0613698, "name": "Золотоноша", "state": "UA", "departure_ratio": 1.0, "arrival_ratio": 1.0}, {"lat": 51.461816, "lng": 31.2454925, "name": "Чернігів", "state": "UA", "departure_ratio": 1.0, "arrival_ratio": 1.1}, {"lat": 50.5578571, "lng": 32.38511, "name": "Прилуки", "state": "UA", "departure_ratio": 1.0, "arrival_ratio": 1.0}, {"lat": 51.0171628, "lng": 31.8638573, "name": "Ніжин", "state": "UA", "departure_ratio": 1.0, "arrival_ratio": 1.0}, {"lat": 51.7683452, "lng": 32.2515697, "name": "Корюківка", "state": "UA", "departure_ratio": 1.2, "arrival_ratio": 1.2}, {"lat": 48.3306025, "lng": 25.9390436, "name": "Чернівці", "state": "UA", "departure_ratio": 0.9, "arrival_ratio": 1.2}, {"lat": 51.3387526, "lng": 26.6026634, "name": "Сарни", "state": "UA", "departure_ratio": 0.85, "arrival_ratio": 0.85}, {"lat": 48.7954704, "lng": 29.3841935, "name": "Гайсин", "state": "UA", "departure_ratio": 1.0, "arrival_ratio": 1.0}, {"lat": 50.6266933, "lng": 27.6425265, "name": "Звягель", "state": "UA", "departure_ratio": 1.0, "arrival_ratio": 1.0}, {"lat": 48.5282809, "lng": 25.0907483, "name": "Коломия", "state": "UA", "departure_ratio": 0.95, "arrival_ratio": 0.85}, {"lat": 49.4212501, "lng": 24.5995285, "name": "Рогатин", "state": "UA", "departure_ratio": 0.95, "arrival_ratio": 0.85}, {"lat": 50.2467703, "lng": 31.8149387, "name": "Яготин", "state": "UA", "departure_ratio": 0.9, "arrival_ratio": 1.0}, {"lat": 49.270618, "lng": 23.8716906, "name": "Стрий", "state": "UA", "departure_ratio": 0.9, "arrival_ratio": 0.85}, {"lat": 50.2910938, "lng": 24.6341675, "name": "Радехів", "state": "UA", "departure_ratio": 0.9, "arrival_ratio": 0.85}, {"lat": 48.0177576, "lng": 30.8541633, "name": "Первомайськ", "state": "UA", "departure_ratio": 1.2, "arrival_ratio": 1.2}, {"lat": 51.6777499, "lng": 33.9098281, "name": "Глухів", "state": "UA", "departure_ratio": 1.1, "arrival_ratio": 1.2}, {"lat": 49.3775898, "lng": 35.4446926, "name": "Красноград", "state": "UA", "departure_ratio": 1.0, "arrival_ratio": 1.2}, {"lat": 48.8924704, "lng": 36.3150649, "name": "Лозова", "state": "UA", "departure_ratio": 1.2, "arrival_ratio": 1.2}, {"lat": 49.0796932, "lng": 30.9342995, "name": "Звенигородка", "state": "UA", "departure_ratio": 1.0, "arrival_ratio": 1.0}, {"lat": 51.1778934, "lng": 32.7951018, "name": "Бахмач", "state": "UA", "departure_ratio": 1.0, "arrival_ratio": 1.1},
{"lat": 47.4813274, "lng": 18.9654942, "name": "Будапешт", "state": "HU"},
{"lat": 47.9425076, "lng": 21.5361003, "name": "Ньїредьгаза", "state": "HU", "departure_ratio": 2.185},
{"lat": 48.0892665, "lng": 20.5109407, "name": "Мішкольц", "state": "HU", "departure_ratio": 2.185},
{"lat": 46.0778527, "lng": 18.0857723, "name": "Печ", "state": "HU", "departure_ratio": 1.262},
{"lat": 53.4297871, "lng": 14.459813, "name": "Щецин", "state": "PL", "departure_ratio": 1.602},
{"lat": 54.4288788, "lng": 18.4205889, "name": "Гданськ", "state": "PL", "departure_ratio": 1.602},
{"lat": 52.4007215, "lng": 16.7368394, "name": "Познань", "state": "PL", "departure_ratio": 1.505},
{"lat": 51.1264641, "lng": 16.8269713, "name": "Вроцлав", "state": "PL", "departure_ratio": 1.602},
{"lat": 50.2139811, "lng": 18.8431736, "name": "Катовіце", "state": "PL"},
{"lat": 52.2330974, "lng": 20.8966122, "name": "Варшава", "state": "PL"},
{"lat": 51.2182839, "lng": 22.3988565, "name": "Люблін", "state": "PL", "departure_ratio": 2.185},
{"lat": 60.1100964, "lng": 24.6890501, "name": "Гельсінкі", "state": "FI"},
{"lat": 60.4319818, "lng": 22.0594039, "name": "Турку", "state": "FI"},
{"lat": 59.3039423, "lng": 17.9213496, "name": "Стокгольм", "state": "SE"},
{"lat": 57.7009307, "lng": 11.5642033, "name": "Ґетеборг", "state": "SE", "departure_ratio": 1.602},
{"lat": 55.5702521, "lng": 12.8511658, "name": "Мальме", "state": "SE", "departure_ratio": 1.602},
{"lat": 59.8939243, "lng": 10.6203111, "name": "Осло", "state": "NO"},
{"lat": 60.3651175, "lng": 5.0995406, "name": "Берген", "state": "NO", "departure_ratio": 1.602},
{"lat": 55.6713366, "lng": 12.5114235, "name": "Копенгаґен", "state": "DK"},
{"lat": 56.9718363, "lng": 23.9642672, "name": "Рига", "state": "LV"},
{"lat": 55.7049013, "lng": 20.9927717, "name": "Клайпеда", "state": "LT", "departure_ratio": 1.505},
{"lat": 54.890061, "lng": 23.7624566, "name": "Каунас", "state": "LT"},
{"lat": 54.7006341, "lng": 24.9233969, "name": "Вільнюс", "state": "LT"},
{"lat": 55.7305, "lng": 24.251837, "name": "Паневежис", "state": "LT"},
{"lat": 53.8810902, "lng": 10.5965684, "name": "Любек", "state": "DE"},
{"lat": 53.5585268, "lng": 9.5981834, "name": "Гамбург", "state": "DE"},
{"lat": 52.5068042, "lng": 13.0950924, "name": "Берлін", "state": "DE"},
{"lat": 51.0769336, "lng": 13.6077778, "name": "Дрезден", "state": "DE"},
{"lat": 51.238554, "lng": 6.6495424, "name": "Дюссельдорф", "state": "DE"},
{"lat": 50.1213155, "lng": 8.4717557, "name": "Франкфурт", "state": "DE", "departure_ratio": 1.408},
{"lat": 48.155022, "lng": 11.3770271, "name": "Мюнхен", "state": "DE", "departure_ratio": 1.408},
{"lat": 47.9874231, "lng": 7.6316114, "name": "Фрайбург", "state": "DE", "departure_ratio": 1.408},
{"lat": 52.3547607, "lng": 4.7391529, "name": "Амстердам", "state": "NL"},
{"lat": 51.9280632, "lng": 4.4084274, "name": "Роттердам", "state": "NL"},
{"lat": 52.0057122, "lng": 5.7317911, "name": "Арнем", "state": "NL"},
{"lat": 50.8552021, "lng": 4.2930158, "name": "Брюссель", "state": "BE"},
{"lat": 50.6246814, "lng": 5.5168762, "name": "Льєж", "state": "BE"},
{"lat": 51.2605815, "lng": 4.1929691, "name": "Антверпен", "state": "BE"},
{"lat": 51.2608836, "lng": 3.0573022, "name": "Брюгге", "state": "BE"},
{"lat": 51.528607, "lng": -0.4312391, "name": "Лондон", "state": "GB"},
{"lat": 52.4974437, "lng": -2.028439, "name": "Бірмінгем", "state": "GB"},
{"lat": 53.4723364, "lng": -2.3882701, "name": "Манчестер", "state": "GB"},
{"lat": 48.8589384, "lng": 2.2646341, "name": "Париж", "state": "FR"},
{"lat": 43.600798, "lng": 1.3504413, "name": "Тулуза", "state": "FR", "departure_ratio": 1.505},
{"lat": 45.7580409, "lng": 4.752729, "name": "Ліон", "state": "FR", "departure_ratio": 1.457},
{"lat": 43.280477, "lng": 5.2158385, "name": "Марсель", "state": "FR", "departure_ratio": 1.457},
{"lat": 43.7032898, "lng": 7.1704108, "name": "Ніцца", "state": "FR", "departure_ratio": 1.457},
{"lat": 41.3927673, "lng": 2.0577878, "name": "Барселона", "state": "ES"},
{"lat": 40.4380986, "lng": -3.8443472, "name": "Мадрид", "state": "ES"},
{"lat": 39.4079343, "lng": -0.526322, "name": "Валенсія", "state": "ES"},
{"lat": 38.3579009, "lng": -0.5137239, "name": "Аліканте", "state": "ES"},
{"lat": 38.7441844, "lng": -9.2421373, "name": "Лісабон", "state": "PT"},
{"lat": 41.1622468, "lng": -8.6631533, "name": "Порто", "state": "PT"},
{"lat": 46.9546812, "lng": 7.3125347, "name": "Берн", "state": "CH"},
{"lat": 47.3775284, "lng": 8.4543345, "name": "Цюрих", "state": "CH"},
{"lat": 46.204882, "lng": 6.1018392, "name": "Женева", "state": "CH"},
{"lat": 45.0735965, "lng": 7.5931901, "name": "Турін", "state": "IT"},
{"lat": 45.4628246, "lng": 9.0953312, "name": "Мілан", "state": "IT"},
{"lat": 44.4471043, "lng": 8.7260225, "name": "Генуя", "state": "IT"},
{"lat": 41.9102088, "lng": 12.3711877, "name": "Рим", "state": "IT", "departure_ratio": 1.602},
{"lat": 44.4992289, "lng": 11.2492844, "name": "Болонья", "state": "IT"},
{"lat": 45.4065947, "lng": 11.8088444, "name": "Падуя", "state": "IT"},
{"lat": 49.7417789, "lng": 13.2895225, "name": "Плзень", "state": "CZ"},
{"lat": 50.0597734, "lng": 14.3008157, "name": "Прага", "state": "CZ"},
{"lat": 49.2021772, "lng": 16.4131521, "name": "Брно", "state": "CZ"},
{"lat": 49.8198461, "lng": 18.0725863, "name": "Острава", "state": "CZ", "departure_ratio": 1.505},
{"lat": 48.2203441, "lng": 16.2148338, "name": "Відень", "state": "AT"},
{"lat": 47.0732813, "lng": 15.3595618, "name": "Грац", "state": "AT"},
{"lat": 48.2950278, "lng": 14.1626597, "name": "Лінц", "state": "AT"},
{"lat": 46.0662069, "lng": 14.4496981, "name": "Любляна", "state": "SI"},
{"lat": 46.5536284, "lng": 15.5621488, "name": "Марібор", "state": "SI"},
{"lat": 48.1358917, "lng": 16.9511084, "name": "Братислава", "state": "SK"},
{"lat": 48.3747278, "lng": 17.4910673, "name": "Трнава", "state": "SK"},
{"lat": 48.6975239, "lng": 21.074384, "name": "Кошице", "state": "SK", "departure_ratio": 1.845},
{"lat": 49.2202489, "lng": 18.6659293, "name": "Жиліна", "state": "SK", "departure_ratio": 1.505},
{"lat": 45.8428955, "lng": 15.7995548, "name": "Загреб", "state": "HR"},
{"lat": 45.3458358, "lng": 14.3490454, "name": "Рієка", "state": "HR"},
{"lat": 45.5471155, "lng": 18.6063408, "name": "Осієк", "state": "HR"},
{"lat": 43.5147073, "lng": 16.4178876, "name": "Спліт", "state": "HR"},
{"lat": 43.8938174, "lng": 18.3005903, "name": "Сараєво", "state": "BA"},
{"lat": 44.7786845, "lng": 17.1237658, "name": "Баня-Лука", "state": "BA"},
{"lat": 44.2025419, "lng": 17.8505815, "name": "Зеница", "state": "BA"},
{"lat": 44.5422296, "lng": 18.5197859, "name": "Тузла", "state": "BA"},
{"lat": 44.868554, "lng": 18.7607094, "name": "Брчко", "state": "BA"},
{"lat": 44.8153704, "lng": 20.2577875, "name": "Белград", "state": "RS"},
{"lat": 43.3162359, "lng": 21.8521597, "name": "Ниш", "state": "RS"},
{"lat": 43.8894019, "lng": 20.320243, "name": "Чачак", "state": "RS"},
{"lat": 42.7100269, "lng": 20.8567438, "name": "Пріштіна", "state": "RS"},
{"lat": 42.4321113, "lng": 19.1734776, "name": "Подгориця", "state": "ME"},
{"lat": 42.7733511, "lng": 18.9069226, "name": "Никшич", "state": "ME"},
{"lat": 41.3332418, "lng": 19.7766235, "name": "Тірана", "state": "AL"},
{"lat": 41.3314353, "lng": 19.3839559, "name": "Дуррес", "state": "AL"},
{"lat": 41.9991884, "lng": 21.342489, "name": "Скоп’є", "state": "MK"},
{"lat": 42.1145403, "lng": 21.644528, "name": "Куманово", "state": "MK"},
{"lat": 41.3439403, "lng": 21.5276239, "name": "Прілеп", "state": "MK"},
{"lat": 40.6212503, "lng": 22.9048275, "name": "Салоніки", "state": "GR"},
{"lat": 37.9908977, "lng": 23.6971396, "name": "Афіни", "state": "GR", "departure_ratio": 1.602},
{"lat": 37.9461625, "lng": 23.626718, "name": "Пірей", "state": "GR", "departure_ratio": 1.602},
{"lat": 38.2491204, "lng": 21.6632043, "name": "Патри", "state": "GR", "departure_ratio": 1.602},
{"lat": 45.7411547, "lng": 21.1341887, "name": "Тімішоара", "state": "RO", "departure_ratio": 1.602},
{"lat": 44.4379524, "lng": 25.929828, "name": "Бухарест", "state": "RO"},
{"lat": 44.1811705, "lng": 28.4651967, "name": "Констанца", "state": "RO", "departure_ratio": 1.554},
{"lat": 45.4377494, "lng": 27.9650938, "name": "Галац", "state": "RO", "departure_ratio": 2.136},
{"lat": 47.6639376, "lng": 26.1792041, "name": "Сучава", "state": "RO", "departure_ratio": 2.136},
{"lat": 46.999985, "lng": 28.6933676, "name": "Кишинів", "state": "MD"},
{"lat": 47.7670317, "lng": 27.818978, "name": "Бєльці", "state": "MD"},
{"lat": 42.6955664, "lng": 23.1591367, "name": "Софія", "state": "BG", "departure_ratio": 1.505},
{"lat": 43.2049731, "lng": 27.7780987, "name": "Варна", "state": "BG"},
{"lat": 42.1442187, "lng": 24.658473, "name": "Пловдив", "state": "BG", "departure_ratio": 1.505},
{"lat": 43.2149862, "lng": 27.5674339, "name": "Девня", "state": "BG"},
{"lat": 43.8217113, "lng": 25.8773909, "name": "Русе", "state": "BG"},
{"lat": 43.5753302, "lng": 27.7707205, "name": "Добрич", "state": "BG"},
{"lat": 41.0053702, "lng": 28.6825281, "name": "Стамбул", "state": "TR"},
{"lat": 40.9599078, "lng": 27.4756292, "name": "Текірдаг", "state": "TR"},
{"lat": 40.9049632, "lng": 29.3817976, "name": "Гебзе", "state": "TR"},
{"lat": 39.9035233, "lng": 32.5979541, "name": "Анкара", "state": "TR", "departure_ratio": 1.594},
{"lat": 36.7428767, "lng": 34.3640946, "name": "Мерсін", "state": "TR", "departure_ratio": 1.777},
{"lat": 40.2215218, "lng": 28.7204497, "name": "Бурса", "state": "TR", "departure_ratio": 1.430},
{"lat": 38.4178287, "lng": 26.9149061, "name": "Ізмір", "state": "TR", "departure_ratio": 1.503}]}
